[
	{"place":"Greenwich Pier", "coor":{"lat":51.483653,"lng":-0.009482}},
	{"place":"Nauticalia Greenwich", "coor":{"lat":51.481008, "lng":-0.008228}},
	{"place":"Greenwich Market", "coor":{"lat":51.481557, "lng":-0.009097}},
	{"place":"Better Gym Greenwich Center", "coor":{"lat":51.485568, "lng":0.008575}},
	{"place":"The Gipsy Moth Restaurant&Bar", "coor":{"lat":51.482191, "lng":-0.009745}},
	{"place":"O2", "coor":{"lat":51.502118, "lng":0.004838}},
	{"place":"Cutty Sark", "coor":{"lat":51.482847, "lng":-0.009589}},
	{"place":"Royal Observatory Greenwich", "coor":{"lat":51.477819, "lng":-0.001520}},
	{"place":"Paul Rhodes Bakery", "coor":{"lat":51.482037, "lng":-0.008915}},
	{"place":"Greenwich Park", "coor":{"lat":51.476916, "lng":0.001443}},
	{"place":"Island Gardens Park", "coor":{"lat":51.486911, "lng":-0.008402}},
	{"place":"Pure Gym", "coor":{"lat":51.476164, "lng":-0.018393}}
]